City,Lat,Lng,Max Temp,Humidity,Cloudiness,Wind Speed,Country,Date
Melfi,41.0,15.65,59.56,74,100,4.94,IT,1649823693
Khatanga,71.97,102.5,17.94,96,100,7.49,RU,1649797348
Torbay,47.67,-52.73,38.28,92,100,19.57,CA,1649839543
Saint Paul Harbor,57.79,-152.41,36.91,70,0,8.05,US,1649862230
Bredasdorp,-34.53,20.04,66.56,83,100,11.45,ZA,1649826068
Rikitea,-23.12,-134.97,78.04,71,3,17.36,PF,1649862735
Bambous Virieux,-20.34,57.76,78.22,88,75,16.11,MU,1649816351
Muros,42.78,-9.06,66.69,81,13,11.21,ES,1649829485
Jamestown,42.1,-79.24,71.19,77,100,16.11,US,1649846359
Vaini,-21.2,-175.2,71.76,94,20,5.75,TO,1649958729
Busselton,-33.65,115.33,55.36,85,0,9.71,AU,1649803140
George Town,5.41,100.34,82.35,89,20,5.01,MY,1649805137
Nome,64.5,-165.41,15.6,88,45,6.62,US,1649864048
Ocean City,39.28,-74.57,79.18,75,82,1.99,US,1649845445
Bluff,-46.6,168.33,43.81,83,81,13.18,NZ,1649877687
Vila,42.03,-8.16,55.71,66,74,4.94,PT,1649829325
Provideniya,64.38,-173.3,17.82,91,100,19.15,RU,1649952151
San Patricio,28.02,-97.52,81.18,74,100,11.9,US,1649851614
Hambantota,6.12,81.12,77.34,100,20,2.3,LK,1649809720
Pangnirtung,66.15,-65.71,-2.2,78,40,6.91,CA,1649839756
Suntar,62.14,117.63,29.57,79,100,10.07,RU,1649883003
Taoudenni,22.68,-3.98,100.11,6,0,18.88,ML,1649829443
Hobart,-42.88,147.33,52.05,82,3,10.36,AU,1649882460
Souillac,-20.52,57.52,77.38,88,75,16.11,MU,1649816416
Marawi,8.0,124.29,68.9,92,97,2.98,PH,1649799289
Kapaa,22.08,-159.32,71.92,97,75,9.22,US,1649866729
Kamenka,51.32,42.77,51.69,89,100,14.63,RU,1649816294
Clyde River,70.47,-68.59,-5.57,84,75,2.3,CA,1649838954
Mount Gambier,-37.83,140.77,49.91,93,61,6.91,AU,1649883713
Areosa,41.72,-8.86,61.54,74,39,11.5,PT,1649829516
Teknāf,20.86,92.31,79.16,84,12,1.05,BD,1649806430
Grand Gaube,-20.01,57.66,78.39,84,26,8.01,MU,1649816360
Hong Kong,22.29,114.16,79.18,86,89,1.01,HK,1649801124
Punta Arenas,-53.15,-70.92,57.22,67,40,27.63,CL,1649849255
Yellowknife,62.46,-114.35,5.41,71,20,3.44,CA,1649852285
Mataura,-46.19,168.86,43.48,98,33,2.21,NZ,1649877528
Atuona,-9.8,-139.03,77.88,81,48,18.32,PF,1649863161
Hermanus,-34.42,19.23,68.81,88,99,10.71,ZA,1649826256
Ushuaia,-54.8,-68.3,47.86,66,75,6.91,AR,1649848800
Juneau,58.3,-134.42,31.21,40,20,12.66,US,1649857842
Tautira,-17.73,-149.15,80.78,77,22,19.93,PF,1649865909
Carnarvon,-24.87,113.63,69.87,78,0,11.5,AU,1649803131
Geraldton,-28.77,114.6,61.21,88,0,6.91,AU,1649803076
Chokurdakh,70.63,147.92,-19.17,100,82,4.03,RU,1649873197
Itarema,-2.92,-39.92,84.33,70,92,8.59,BR,1649839109
Lagoa,39.05,-27.98,60.12,81,76,32.37,PT,1649834290
Umm Kaddadah,13.6,26.69,94.05,9,4,11.25,SD,1649822482
Ponta do Sol,32.67,-17.1,69.71,78,78,1.21,PT,1649832076
Hithadhoo,-0.6,73.08,84.51,71,41,11.92,MV,1649811904
Qaanaaq,77.48,-69.36,2.1,92,100,5.48,GL,1649833760
Pio IX,-6.84,-40.58,88.21,46,73,5.41,BR,1649839418
Tuktoyaktuk,69.45,-133.04,3.2,72,75,12.66,CA,1649854782
Srednekolymsk,67.45,153.68,-18.83,100,92,4.23,RU,1649873017
Chui,-33.7,-53.46,71.51,36,46,7.78,UY,1649843674
Honiara,-9.43,159.95,75.97,79,12,3.27,SB,1649877791
Marshall,34.38,-86.33,76.08,67,0,10.36,US,1649848578
New Norfolk,-42.78,147.06,51.71,69,5,3.51,AU,1649882518
Inírida,3.87,-67.92,85.14,75,99,2.57,CO,1649845568
Cape Town,-33.93,18.42,72.12,81,20,19.57,ZA,1649826425
High Rock,26.62,-78.28,80.62,62,11,17.13,BS,1649847072
Jizan,17.33,42.67,92.34,39,0,5.57,SA,1649818492
Port Blair,11.67,92.75,82.44,83,20,2.3,IN,1649806712
Hajdúdorog,47.82,21.5,60.76,48,0,4.74,HU,1649821738
Matara,5.95,80.54,78.73,87,95,7.54,LK,1649809867
Port Alfred,-33.59,26.89,72.18,89,3,3.78,ZA,1649824374
Pisco,-13.7,-76.22,69.03,77,5,6.91,PE,1649848239
Avarua,-21.21,-159.78,73.45,100,20,2.3,CK,1649868607
Castro,-24.79,-50.01,69.87,87,100,6.8,BR,1649842414
Nyagan,62.14,65.39,37.4,88,100,7.85,RU,1649809308
Ribeira Grande,38.52,-28.7,63.0,82,75,24.16,PT,1649834498
Kawalu,-7.38,108.21,72.63,96,97,1.59,ID,1649803731
Werda,-25.27,23.28,73.78,31,61,6.89,BW,1649824839
Korsakovo,53.27,37.36,49.93,83,97,18.34,RU,1649817372
Altay,47.87,88.12,41.74,40,31,10.54,CN,1649805767
Upernavik,72.79,-56.15,4.84,86,100,9.08,GL,1649834827
Saskylakh,71.92,114.08,-7.82,100,97,4.59,RU,1649880664
Yeniseysk,58.45,92.17,28.49,89,24,3.94,RU,1649803542
Rodas,22.34,-80.56,89.82,41,92,11.03,CU,1649847825
Lavrentiya,65.58,-171.0,13.26,90,68,10.63,RU,1649951281
Yeppoon,-23.13,150.73,69.58,71,13,11.63,AU,1649880572
Lüderitz,-26.65,15.16,66.76,73,18,14.41,NA,1649826852
Arlit,18.74,7.39,105.4,5,98,10.07,NE,1649826894
Dikson,73.51,80.55,27.73,91,100,14.47,RU,1649801727
Arecibo,18.47,-66.72,85.28,65,0,3.0,PR,1649844680
Kaitangata,-46.28,169.85,42.22,90,30,5.32,NZ,1649877299
Vestmannaeyjar,63.44,-20.27,45.59,81,40,37.98,IS,1649829547
Kenai,60.55,-151.26,31.08,96,0,3.44,US,1649861493
Albany,42.6,-73.97,64.31,36,95,9.01,US,1649845058
Løding,67.3,14.75,37.31,90,75,3.44,NO,1649820163
Salem,11.65,78.17,82.18,72,83,5.35,IN,1649810211
Tuatapere,-46.13,167.68,43.84,90,77,5.03,NZ,1649877807
Havelock,34.88,-76.9,78.98,74,75,13.8,US,1649846286
Tasiilaq,65.61,-37.64,29.97,71,100,7.23,GL,1649833179
Nanortalik,60.14,-45.24,38.64,73,99,5.01,GL,1649836174
Sørland,67.67,12.69,38.48,72,88,9.01,NO,1649820541
Baruun-Urt,46.68,113.28,33.66,24,100,12.97,MN,1649799842
Wick,58.43,-3.08,44.65,81,75,13.8,GB,1649826361
Waipawa,-41.41,175.52,49.06,74,100,11.99,NZ,1649875592
Fairbanks,64.84,-147.72,31.91,69,0,1.01,US,1649859729
Puerto Ayora,-0.74,-90.35,80.56,78,54,8.05,EC,1649851128
Zheleznodorozhnyy,55.75,38.0,43.14,91,100,11.39,RU,1649816907
Talnakh,69.49,88.4,31.21,98,100,11.9,RU,1649801801
Mamanguape,-6.84,-35.13,88.12,46,43,8.61,BR,1649838109
Belmonte,-15.86,-38.88,82.18,70,37,8.28,BR,1649839365
Ostrovnoy,68.05,39.51,24.17,86,100,3.44,RU,1649813999
Bereda,43.27,-7.54,60.58,72,98,3.13,ES,1649829083
Wanning,18.8,110.4,74.64,90,21,2.01,CN,1649802182
Mehamn,71.04,27.85,30.11,78,90,4.38,NO,1649815641
Bengkulu,-3.8,102.27,77.52,85,19,3.76,ID,1649805022
Zhangjiakou,40.81,114.88,46.67,25,18,10.31,CN,1649799917
Departamento de Maldonado,-34.67,-54.92,65.59,43,1,14.16,UY,1649844075
Niquelândia,-14.47,-48.46,92.21,40,12,2.33,BR,1649841607
Acapulco de Juárez,16.86,-99.89,83.86,62,85,3.89,MX,1649852709
Naze,28.37,129.48,68.92,89,23,8.23,JP,1649883492
Mossamedes,-15.2,12.15,77.16,78,3,9.71,AO,1649827088
Ust-Tsilma,65.44,52.15,33.93,99,100,6.33,RU,1649811733
Uglekamensk,43.22,133.23,36.28,61,100,3.02,RU,1649881641
Grand-Santi,4.25,-54.38,82.87,74,89,5.28,GF,1649842304
Zhigansk,66.77,123.37,14.86,94,100,16.98,RU,1649880482
Goderich,43.75,-81.72,64.72,77,100,19.57,CA,1649846826
Bethel,41.37,-73.41,66.29,30,75,12.66,US,1649845018
Mattru,7.62,-11.83,93.11,44,76,3.4,SL,1649831963
Patacamaya,-17.23,-67.92,58.1,15,0,8.55,BO,1649846389
San Matías,-16.37,-58.4,93.42,46,17,5.48,BO,1649844070
Newport,51.59,-3.0,63.63,73,70,10.18,GB,1649827232
Englewood,39.65,-104.99,37.04,41,95,4.0,US,1649852711
Milledgeville,33.08,-83.23,73.22,77,0,5.75,US,1649847911
East London,-33.02,27.91,74.34,88,20,4.61,ZA,1649824099
Annau,37.89,58.52,83.7,32,20,18.41,TM,1649813628
Thompson,55.74,-97.86,19.56,79,100,16.11,CA,1649849457
Ossora,59.24,163.07,20.16,95,100,7.23,RU,1649872662
Ust-Kuyga,70.02,135.6,-14.33,100,89,1.52,RU,1649876409
Mar del Plata,-38.0,-57.56,66.87,40,0,11.99,AR,1649844897
Luganville,-15.53,167.17,78.44,84,17,2.19,VU,1649876303
Arraial do Cabo,-22.97,-42.03,85.96,70,0,12.66,BR,1649840417
Padang,-0.95,100.35,79.68,85,100,1.77,ID,1649805374
Hanzhong,33.07,107.03,65.28,61,100,4.94,CN,1649802287
Ko Samui,9.54,99.94,84.72,73,89,11.59,TH,1649805072
Tsaratanana,-16.78,47.65,75.09,77,5,8.03,MG,1649818631
Longyearbyen,78.22,15.64,22.84,86,75,5.75,SJ,1649812347
Sihorā,23.48,80.12,90.73,16,81,4.63,IN,1649809234
Kavieng,-2.57,150.8,81.54,78,84,9.4,PG,1649879719
Nha Trang,12.25,109.18,78.8,88,99,0.49,VN,1649802746
Buraidah,26.33,43.98,86.45,15,59,12.5,SA,1649817766
Grand-Lahou,5.14,-5.02,83.43,75,100,13.44,CI,1649830427
Ileza,61.05,43.9,33.39,97,100,8.46,RU,1649814663
Luanda,-8.84,13.23,84.2,70,75,6.91,AO,1649826580
Aykhal,66.0,111.5,19.35,97,100,8.63,RU,1649883546
Iguape,-24.71,-47.56,78.85,75,100,4.9,BR,1649841821
Sretensk,52.25,117.71,27.25,61,39,0.83,RU,1649884501
Fereydūnkenār,36.69,52.52,55.31,83,42,3.94,IR,1649815142
Cherskiy,68.75,161.3,-8.03,99,47,5.77,RU,1649870754
Saint George,37.1,-113.58,47.79,20,0,5.75,US,1649854942
Leshukonskoye,64.9,45.76,32.13,98,100,10.38,RU,1649813398
Rincon,32.3,-81.24,78.85,60,75,16.11,US,1649847477
Mayumba,-3.43,10.66,80.33,80,72,10.38,GA,1649826992
Nipawin,53.37,-104.0,14.04,85,100,14.97,CA,1649851232
Shimoda,34.67,138.95,67.1,96,76,6.38,JP,1649880864
Neyshabur,36.21,58.8,77.65,12,50,2.66,IR,1649813667
Aleksandrovskiy Zavod,50.92,117.94,26.31,65,15,1.21,RU,1649884594
Abu Dhabi,24.47,54.37,91.51,33,0,4.61,AE,1649815363
Barrow,71.29,-156.79,-5.78,77,0,3.44,US,1649859671
Hervey Bay,-25.3,152.85,68.02,89,88,11.01,AU,1649880161
Rongcheng,30.63,117.85,53.91,90,100,3.13,CN,1649799827
Ewo,-0.87,14.82,75.18,89,73,6.24,CG,1649825895
Faanui,-16.48,-151.75,81.57,74,10,16.26,PF,1649866481
Ancud,-41.87,-73.82,61.23,69,38,2.44,CL,1649849042
Bara,10.37,10.73,92.77,37,59,6.93,NG,1649826441
Sitka,57.05,-135.33,33.69,37,0,5.75,US,1649858250
Airai,-8.93,125.41,59.86,93,100,2.35,TL,1649886060
Eyrarbakki,63.86,-21.15,50.05,74,98,17.65,IS,1649829662
Vila Franca do Campo,37.72,-25.43,63.01,79,50,24.25,PT,1649833767
Lompoc,34.64,-120.46,56.79,58,0,18.99,US,1649856745
Sakakah,29.97,40.21,83.77,17,38,3.71,SA,1649818483
Merauke,-8.47,140.33,79.77,89,100,7.4,ID,1649882460
Nikolskoye,59.7,30.79,44.49,81,10,5.1,RU,1649818042
Shakiso,5.75,38.92,65.01,74,74,5.61,ET,1649819860
Chiang Kham,19.52,100.3,81.66,30,0,2.75,TH,1649804572
Havre-St-Pierre,50.23,-63.6,37.76,87,100,4.61,CA,1649841898
Amahai,-3.33,128.92,78.84,83,85,3.78,ID,1649884999
Luorong,24.41,109.61,67.59,69,0,10.89,CN,1649802117
Butaritari,3.07,172.79,81.63,77,12,16.11,KI,1649874221
Kuusamo,65.97,29.18,39.24,48,0,5.75,FI,1649817091
Kannod,22.67,76.73,94.32,16,27,6.93,IN,1649810083
Arrondissement de Villefranche-de-Rouergue,44.33,2.0,63.14,54,100,3.87,FR,1649826712
Porbandar,21.64,69.61,81.9,78,0,10.09,IN,1649811839
Loralai,30.37,68.6,72.5,12,16,10.31,PK,1649811653
Aswān,24.09,32.91,94.3,8,0,9.22,EG,1649820528
Hilo,19.73,-155.09,70.25,88,75,4.61,US,1649865823
Mutoko,-17.4,32.23,71.83,60,96,3.76,ZW,1649822358
Alcântara,-2.41,-44.41,88.0,69,50,9.37,BR,1649840168
Qaqortoq,60.72,-46.03,44.76,52,100,6.15,GL,1649836263
Margate,51.38,1.39,64.11,77,82,12.28,GB,1649826204
Tura,25.52,90.22,75.04,85,73,6.64,IN,1649806714
Makakilo City,21.35,-158.09,72.68,73,0,6.91,US,1649866467
Vikhorevka,56.12,101.16,29.79,95,42,2.77,RU,1649801725
Hasaki,35.73,140.83,59.4,91,60,20.15,JP,1649880346
Leopold,-38.18,144.47,55.45,92,0,4.61,AU,1649882846
Bismarck,46.81,-100.78,26.44,90,100,18.41,US,1649851139
Riyadh,24.69,46.72,96.94,12,82,8.08,SA,1649817186
Port Elizabeth,-33.92,25.57,65.1,89,20,11.5,ZA,1649824708
Vardø,70.37,31.11,28.38,74,0,10.36,NO,1649815151
Cidreira,-30.18,-50.21,69.51,80,97,10.98,BR,1649842713
Shingū,33.73,135.98,64.24,91,88,4.12,JP,1649881632
Lima,-12.04,-77.03,62.85,82,100,10.36,PE,1649848368
Bria,6.54,21.99,81.32,58,75,3.67,CF,1649823891
Tsabong,-26.02,22.4,77.58,26,39,6.82,BW,1649825085
Antipino,57.11,65.76,53.89,78,96,10.33,RU,1649810070
Half Moon Bay,37.46,-122.43,52.14,76,100,4.61,US,1649857040
Ilulissat,69.22,-51.1,21.22,86,75,6.91,GL,1649835272
Ylöjärvi,61.56,23.6,46.94,41,0,5.75,FI,1649819431
Kahului,20.89,-156.47,74.84,75,0,8.99,US,1649866101
Mazamari,-11.33,-74.53,87.01,56,50,2.53,PE,1649847740
Lokoja,7.8,6.74,91.35,47,99,9.35,NG,1649827499
Sisimiut,66.94,-53.67,24.35,73,55,14.18,GL,1649836646
Oodweyne,9.41,45.06,84.85,36,83,10.02,SO,1649818242
Esperance,-33.87,121.9,62.44,87,75,17.63,AU,1649801574
Fortuna,40.6,-124.16,45.93,90,40,9.22,US,1649857239
Broome,42.25,-75.83,71.98,48,0,12.66,US,1649845532
Darnah,32.77,22.64,63.68,57,21,17.78,LY,1649822542
Oranjestad,12.52,-70.03,85.95,62,40,25.32,AW,1649845728
Severo-Kuril'sk,50.68,156.12,29.16,93,100,13.78,RU,1649875469
Lebu,-37.62,-73.65,57.06,62,1,19.17,CL,1649848739
Katsuura,35.13,140.3,63.37,96,52,2.51,JP,1649880511
Balkanabat,39.51,54.37,68.72,45,4,6.6,TM,1649814515
Magadan,59.57,150.8,13.53,73,100,8.14,RU,1649875545
Sola,-13.88,167.55,79.47,89,75,0.0,VU,1649876144
Romitan,39.93,64.38,71.55,46,0,9.22,UZ,1649812085
Jiaojiang,28.68,121.44,59.16,90,100,13.47,CN,1649799068
Touros,-5.2,-35.46,87.13,57,10,10.22,BR,1649838126
Belomorsk,64.52,34.77,31.57,93,21,2.37,RU,1649816121
Rochegda,62.8,43.25,33.1,98,100,9.91,RU,1649814476
Wanaka,-44.7,169.15,40.1,90,1,1.99,NZ,1649877348
Wanxian,30.8,108.39,68.31,74,89,4.21,CN,1649802087
Pringsewu,-5.36,104.97,74.32,94,95,3.87,ID,1649804431
Dallas,32.77,-96.78,79.74,78,40,14.97,US,1649851179
Bandarbeyla,9.49,50.81,82.27,75,1,10.33,SO,1649816860
Puerto El Triunfo,13.28,-88.55,89.08,52,90,7.7,SV,1649850140
Togur,58.36,82.83,30.58,96,68,6.13,RU,1649805794
Yangi Marg`ilon,40.43,71.72,75.92,35,20,0.0,UZ,1649810291
Mahébourg,-20.41,57.7,78.26,88,75,16.11,MU,1649816367
Grootfontein,-19.57,18.12,73.9,50,80,4.94,NA,1649825834
Ouadda,8.08,22.4,87.94,35,94,4.16,CF,1649823732
Anadyr,64.75,177.48,28.9,86,40,20.13,RU,1649868082
Arrondissement de Bar-le-Duc,48.75,5.17,64.78,75,99,8.14,FR,1649825565
Micco,27.88,-80.5,82.06,65,62,4.0,US,1649847540
Clearwater,27.97,-82.8,81.12,64,40,10.36,US,1649848087
Esqueda,30.72,-109.58,55.38,29,0,0.54,MX,1649854363
Sur,22.57,59.53,87.3,31,0,3.13,OM,1649814214
Walvis Bay,-22.96,14.51,70.75,60,35,13.8,NA,1649826845
Asifābād,19.37,79.28,95.88,26,97,3.94,IN,1649809620
Cabo San Lucas,22.89,-109.91,77.61,54,53,5.39,MX,1649854840
Saldanha,-33.01,17.94,69.85,92,100,18.43,ZA,1649826492
Awjilah,29.11,21.29,80.37,13,5,15.5,LY,1649823065
Vangaindrano,-23.35,47.6,73.11,90,54,6.24,MG,1649818917
Doha,25.29,51.53,97.11,22,0,11.5,QA,1649816004
Opuwo,-18.06,13.84,77.56,50,97,6.38,NA,1649826799
Karratha,-20.74,116.85,81.41,52,52,7.05,AU,1649802183
Avera,33.19,-82.53,72.91,60,100,11.3,US,1649847735
Diffa,13.32,12.61,103.98,10,56,11.79,NE,1649825870
Pacific Grove,36.62,-121.92,49.89,73,0,8.99,US,1649856972
Tiksi,71.69,128.87,-14.84,100,100,2.28,RU,1649877248
Iqaluit,63.75,-68.51,1.13,70,20,19.57,CA,1649841028
Mount Isa,-20.73,139.5,82.17,28,5,5.75,AU,1649883163
Wukari,7.85,9.78,97.16,34,99,7.54,NG,1649826768
Keuruu,62.27,24.7,46.58,83,94,2.26,FI,1649819027
Mareeba,-17.0,145.43,74.12,98,83,2.33,AU,1649881581
Santa Rosa,14.31,121.11,82.38,83,85,5.08,PH,1649799800
Springbok,-29.66,17.89,68.58,45,96,9.86,ZA,1649826339
Elbistan,38.21,37.2,41.18,35,49,14.43,TR,1649818718
Marrakesh,31.63,-8.01,73.47,35,20,10.36,MA,1649829955
Akita,39.72,140.12,46.98,87,100,7.07,JP,1649880252
Savannah Bight,16.45,-85.85,80.98,76,95,21.79,HN,1649849358
North Bend,43.41,-124.22,43.92,91,75,6.91,US,1649857044
Ixtapa,20.7,-105.2,86.61,44,58,3.91,MX,1649853812
Port Macquarie,-31.43,152.92,58.89,81,49,6.93,AU,1649880443
Foam Lake,51.65,-103.53,14.02,92,100,17.49,CA,1649851318
Fairhope,30.52,-87.9,77.02,63,75,16.11,US,1649849175
Boralday,43.36,76.86,58.86,51,40,2.24,KZ,1649808844
Oxapampa,-10.58,-75.4,71.44,69,72,4.83,PE,1649847920
Yaan,7.38,8.57,95.02,37,81,7.05,NG,1649827078
Novobirilyussy,56.95,90.67,24.85,94,4,3.27,RU,1649804125
Rosarito,32.33,-117.03,59.41,46,22,3.13,MX,1649856059
Paamiut,61.99,-49.67,31.51,79,95,17.67,GL,1649836889
Cadillac,44.25,-85.4,65.08,82,100,12.66,US,1649847669
Tornio,65.85,24.15,33.82,89,100,5.08,FI,1649818329
Porto-Novo,6.5,2.6,87.62,64,91,9.93,BJ,1649828544
Faya,18.39,42.45,75.31,37,6,4.41,SA,1649818498
Kīhei,20.79,-156.47,74.84,77,0,0.0,US,1649866105
Hohhot,40.81,111.65,43.09,26,0,2.24,CN,1649800691
Xining,36.62,101.77,41.32,49,99,11.18,CN,1649803339
Kiryat Gat,31.61,34.76,66.4,5,78,11.59,IL,1649819699
Mogadishu,2.04,45.34,82.74,75,75,15.05,SO,1649818461
Batticaloa,7.71,81.69,81.39,79,99,11.83,LK,1649809521
Roald,62.58,6.13,50.92,61,0,16.11,NO,1649823408
Esfarāyen,37.08,57.51,73.06,17,33,6.87,IR,1649813921
Turbat,26.0,63.04,91.06,25,0,1.1,PK,1649813208
Adelanto,34.58,-117.41,52.41,41,0,11.9,US,1649856017
Oni,42.58,43.44,33.26,99,100,3.67,GE,1649816914
Koslan,63.46,48.9,37.29,100,100,6.46,RU,1649812982
Boende,-0.22,20.87,78.96,77,66,4.05,CD,1649824420
Kwakoa,-3.77,37.72,75.38,69,90,4.76,TZ,1649820511
Malumfashi,11.79,7.62,101.12,15,96,7.92,NG,1649827130
Georgiyevka,43.04,74.71,62.64,72,0,4.47,KZ,1649809383
Santa Teresa del Tuy,10.23,-66.66,91.9,34,87,2.82,VE,1649845014
Okakarara,-20.58,17.43,74.64,48,81,14.56,NA,1649826041
Tiarei,-17.53,-149.33,77.02,77,23,19.46,PF,1649865944
Linhares,-19.39,-40.07,92.95,44,48,3.09,BR,1649839795
Valentín Gómez Farías,28.22,-106.58,67.12,14,2,13.15,MX,1649853778
São João da Barra,-21.64,-41.05,87.89,76,25,9.04,BR,1649840125
Bullhead City,35.15,-114.57,58.95,20,0,1.99,US,1649855302
Kupang,-10.17,123.58,78.8,79,91,5.75,ID,1649800147
Haines Junction,60.75,-137.51,-2.25,71,11,1.14,CA,1649858164
Butte,39.65,-121.57,50.29,55,0,12.66,US,1649856686
Jijiga,9.35,42.8,73.15,46,67,7.54,ET,1649818788
Russell,32.35,-85.2,72.68,73,75,6.91,US,1649848425
Bilma,18.69,12.92,103.57,4,39,9.04,NE,1649825569
Al Bardīyah,31.76,25.09,60.76,60,26,13.94,LY,1649822011
São Miguel do Araguaia,-13.28,-50.16,91.08,49,18,1.79,BR,1649841968
Shintomi,32.08,131.47,64.51,93,95,3.62,JP,1649882810
Terrace,54.52,-128.6,26.51,33,20,5.75,CA,1649856985
Ukiah,39.15,-123.21,45.37,86,100,0.0,US,1649857113
Pevek,69.7,170.31,-3.77,93,92,0.98,RU,1649868235
Uravakonda,14.95,77.27,90.19,30,64,19.93,IN,1649810292
Kraksaan,-7.76,113.4,77.59,81,20,3.76,ID,1649802500
Lingao,19.91,109.69,73.74,80,1,0.83,CN,1649802304
Bay Roberts,47.6,-53.26,40.03,82,99,8.01,CA,1649839677
Codrington,-38.27,141.97,52.47,91,29,6.96,AU,1649883451
Tabora,-5.02,32.8,74.82,59,88,3.09,TZ,1649821738
Enshi,30.3,109.48,62.96,89,93,3.15,CN,1649801852
Presidencia Roque Sáenz Peña,-26.79,-60.44,73.72,49,91,9.19,AR,1649845008
Mayo,38.89,-76.51,80.67,61,0,5.99,US,1649845936
Egvekinot,66.32,-179.17,2.35,92,98,13.0,RU,1649953024
Haverfordwest,51.8,-4.97,59.05,78,49,5.01,GB,1649827681
Tigil',57.8,158.67,20.19,97,100,1.77,RU,1649873949
Flinders,-34.58,150.86,61.18,93,84,7.0,AU,1649881105
Paoua,7.24,16.44,91.27,36,84,2.01,CF,1649825195
Aklavik,68.22,-135.01,14.0,79,100,10.36,CA,1649855702
Bathsheba,13.22,-59.52,86.61,58,40,24.16,BB,1649843178
Verkhnetulomskiy,68.61,31.8,33.93,89,91,1.99,RU,1649815659
Nanhai,30.13,111.78,56.12,82,6,3.31,CN,1649801310
Stornoway,58.21,-6.39,52.93,86,75,10.36,GB,1649827187
Dunedin,-45.87,170.5,49.8,85,2,1.01,NZ,1649877110
Dongsheng,39.82,109.98,40.32,22,100,9.26,CN,1649801161
Nivala,63.92,24.97,38.1,89,100,2.57,FI,1649818609
Rafaela,-31.25,-61.49,67.98,29,2,3.0,AR,1649845475
Gladstone,-23.85,151.25,71.78,78,75,5.75,AU,1649880480
Klaksvík,62.23,-6.59,45.52,87,99,15.37,FO,1649826527
Raton,36.9,-104.44,38.05,20,0,33.38,US,1649852763
Lahaina,20.88,-156.68,74.8,85,82,7.47,US,1649866152
Preeceville,51.95,-102.67,17.82,90,100,17.76,CA,1649851077
Coyhaique,-45.58,-72.07,58.95,55,20,6.91,CL,1649848879
Khandyga,62.67,135.6,9.43,98,91,4.14,RU,1649878591
Viedma,-40.81,-63.0,64.26,48,2,13.71,AR,1649846374
Ginda,30.69,78.49,56.35,58,90,8.84,IN,1649809262
Lorica,9.24,-75.81,87.78,74,97,6.2,CO,1649847249
Praia da Vitória,38.73,-27.07,62.85,94,75,24.43,PT,1649834091
Husavik,66.04,-17.34,39.02,82,47,9.62,IS,1649828205
Rawson,-43.3,-65.1,61.56,42,4,7.02,AR,1649847044
Keetmanshoop,-26.58,18.13,88.72,14,0,4.61,NA,1649826135
Aasiaat,68.71,-52.87,12.18,90,100,12.77,GL,1649835879
Chintamani,13.4,78.07,75.54,67,100,5.86,IN,1649810164
Galle,6.04,80.22,79.48,84,99,8.72,LK,1649809940
Maniitsoq,65.42,-52.9,26.91,77,28,15.01,GL,1649836885
Port Hardy,50.7,-127.42,39.2,93,75,3.44,CA,1649857144
Preobrazheniye,42.9,133.91,38.34,77,100,2.66,RU,1649881504
Kungurtug,50.6,97.52,7.61,90,54,1.77,RU,1649803248
Laguna,38.42,-121.42,50.31,74,0,9.22,US,1649856735
Farkhor,37.49,69.4,70.57,57,84,4.61,TJ,1649811043
Najrān,17.49,44.13,92.05,13,63,12.35,SA,1649818134
Lorengau,-2.02,147.27,80.89,76,9,6.24,PG,1649880543
Penco,-36.73,-72.98,58.05,47,0,9.22,CL,1649848528
Abong Mbang,3.98,13.18,79.54,64,81,4.63,CM,1649826103
Praxédis Guerrero,31.37,-106.02,57.88,8,0,22.62,MX,1649853472
Cayenne,4.93,-52.33,84.24,8,75,18.41,GF,1649841786
Mumbwa,-14.98,27.06,71.8,68,83,1.45,ZM,1649823501
Buala,-8.14,159.59,79.48,78,34,5.79,SB,1649877826
Kruisfontein,-34.0,24.73,62.89,76,4,10.71,ZA,1649824914
Turinsk,58.05,63.7,44.31,85,89,12.15,RU,1649810425
Chapais,49.78,-74.85,40.78,64,66,5.73,CA,1649844640
Arrondissement de Saint-Gaudens,43.08,0.67,53.02,88,100,1.32,FR,1649827130
Luba,3.46,8.55,87.69,84,99,6.87,GQ,1649827234
Saint-Philippe,-21.36,55.77,76.59,89,90,16.28,RE,1649816871
Kon Tum,14.35,108.0,70.05,94,88,3.0,VN,1649802944
Herat Province,34.5,62.0,75.09,13,0,8.77,AF,1649813003
Gijón,43.54,-5.66,60.84,84,67,3.0,ES,1649828612
Portland,45.52,-122.68,39.63,92,100,8.01,US,1649856499
Fort-Shevchenko,44.51,50.26,49.57,71,4,7.07,KZ,1649815128
Tual,-5.67,132.75,83.07,78,95,7.23,ID,1649884170
Malampaka,-3.13,33.53,76.6,52,97,0.6,TZ,1649821491
Paka,4.64,103.44,76.98,94,97,0.0,MY,1649804422
Inhambane,-23.86,35.38,82.38,83,40,13.8,MZ,1649821872
Mwinilunga,-11.74,24.43,69.37,82,97,3.18,ZM,1649824005
Anchorage,61.22,-149.9,32.92,85,20,4.61,US,1649861044
Trairi,-3.28,-39.27,85.24,65,72,8.12,BR,1649838967
Berbera,10.44,45.01,84.94,70,13,14.67,SO,1649818213
San Rafael,-34.62,-68.33,71.55,24,0,4.99,AR,1649847293
City of San Pedro,14.35,121.02,81.63,84,20,2.3,PH,1649799822
Nyurba,63.28,118.33,27.84,90,100,9.8,RU,1649882591
Safaga,26.73,33.94,75.33,47,39,15.39,EG,1649820153
Brae,60.4,-1.35,45.43,74,100,15.95,GB,1649825620
General Roca,-39.03,-67.58,66.61,24,7,2.01,AR,1649847366
Izhma,65.01,53.91,34.14,100,100,3.89,RU,1649811420
Conceição do Araguaia,-8.26,-49.26,89.31,57,8,3.11,BR,1649841557
Alofi,-19.06,-169.92,75.09,94,9,2.3,NU,1649870950
Ketchikan,55.34,-131.65,35.58,40,0,0.0,US,1649857606
Gondanglegi,-7.75,112.01,75.11,90,28,3.09,ID,1649802832
Lubao,14.92,120.55,82.11,78,99,3.15,PH,1649799910
Sayyan,15.17,44.32,68.99,27,50,7.45,YE,1649818185
Umba,66.69,34.34,32.94,82,91,1.28,RU,1649815656
Hofn,64.25,-15.21,41.02,75,100,5.75,IS,1649828149
Olafsvik,64.89,-23.71,42.84,71,100,8.52,IS,1649830031
Nouadhibou,20.93,-17.03,75.18,57,0,18.41,MR,1649832654
Tyukhtet,56.54,89.3,27.25,84,4,5.82,RU,1649804510
Balad,34.02,44.15,72.09,21,5,10.85,IQ,1649817312
Saint Anthony,45.02,-93.22,40.95,90,100,16.11,US,1649849480
Asău,46.43,26.4,52.95,37,51,7.78,RO,1649820687
Hobyo,5.35,48.53,83.03,73,62,13.94,SO,1649817570
Ibadan,7.39,3.9,85.48,62,93,4.18,NG,1649828199
Anuradhapura,8.36,80.42,76.77,93,97,5.7,LK,1649809802
Zhifang,30.35,114.32,55.38,81,4,5.79,CN,1649800690
Hirara,24.8,125.28,74.26,87,58,14.41,JP,1649884682
College,64.86,-147.8,31.89,66,75,0.0,US,1649859745
Coquimbo,-29.95,-71.34,56.93,82,20,5.75,CL,1649847777
Anshun,26.25,105.93,57.31,84,8,9.91,CN,1649802910
Angren,41.02,70.14,62.49,60,0,2.53,UZ,1649810627
Uusikaupunki,60.8,21.41,36.88,77,100,8.14,FI,1649820096
Zhangye,38.93,100.45,49.48,23,100,0.74,CN,1649803505
Praia,14.92,-23.51,79.34,50,20,21.85,CV,1649834468
Port Lincoln,-34.73,135.87,67.98,73,100,3.6,AU,1649884713
Taebla,58.95,23.74,47.93,43,87,3.0,EE,1649819853
Yuanping,38.72,112.76,53.02,19,100,4.05,CN,1649800569
Vidim,56.41,103.11,24.17,93,48,2.37,RU,1649801220
Blythe,33.61,-114.6,61.03,11,0,4.61,US,1649855401
Tromsø,69.65,18.96,41.02,48,75,5.75,NO,1649818349
Iquique,-20.22,-70.14,66.24,67,8,5.17,CL,1649847048
Lebyazh'ye,55.27,66.49,53.4,41,95,15.95,RU,1649810144
Kirakira,-10.45,161.92,78.66,83,72,5.82,SB,1649877358
Nuevo Progreso,23.17,-97.95,81.46,75,40,3.0,MX,1649851958
Ariquemes,-9.91,-63.04,87.64,65,79,2.89,BR,1649844927
Proletariy,58.43,31.7,42.78,75,82,4.63,RU,1649818028
Eilat,29.56,34.95,78.64,19,20,23.02,IL,1649819765
Kuching,1.55,110.33,75.42,100,40,1.99,MY,1649802885
Mayya,61.73,130.28,18.72,98,100,2.77,RU,1649880058
Guantánamo,20.14,-75.21,86.47,50,52,11.9,CU,1649846643
Berlevåg,70.86,29.09,30.15,64,0,9.22,NO,1649815425
Bilibino,68.05,166.44,11.91,86,100,3.6,RU,1649869768
Matinha,-3.1,-45.03,86.58,67,61,5.12,BR,1649840343
Broken Hill,-31.95,141.43,56.91,35,0,6.91,AU,1649883227
Biak,-0.91,122.88,78.19,80,100,1.97,ID,1649799968
Kununurra,-15.77,128.73,82.38,83,99,2.3,AU,1649799128
Tazovsky,67.47,78.7,32.74,98,100,10.71,RU,1649804808
São Filipe,14.9,-24.5,72.0,73,34,14.65,CV,1649834706
Myitkyina,25.38,97.4,74.28,74,23,2.42,MM,1649804998
Rocha,-34.48,-54.33,69.33,33,3,12.59,UY,1649843925
Yar-Sale,66.83,70.83,33.73,100,100,3.83,RU,1649806880
San Carlos del Zulia,9.0,-71.91,88.86,57,56,4.63,VE,1649846323
Senanga,-16.12,23.27,76.68,62,98,1.32,ZM,1649824457
Alvand,36.32,49.17,58.66,13,6,21.16,IR,1649815969
Nova Borova,50.69,28.63,41.85,72,100,16.58,UA,1649819747
Salalah,17.02,54.09,81.52,76,0,1.7,OM,1649815764
Kholmogory,64.22,41.66,34.14,96,100,5.37,RU,1649814543
Jalu,29.03,21.55,79.97,13,3,14.63,LY,1649823007
Port Keats,-14.25,129.55,82.53,76,100,2.64,AU,1649885280
Minot,48.23,-101.3,26.82,86,100,20.71,US,1649851130
Norman Wells,65.28,-126.83,6.84,56,20,2.3,CA,1649854617
Ust-Nera,64.57,143.2,-5.71,98,58,1.61,RU,1649876335
Abu Samrah,35.3,37.18,60.06,37,4,6.26,SY,1649818905
Baykit,61.67,96.37,34.36,89,100,12.53,RU,1649801982
Am Timan,11.03,20.28,101.57,18,62,3.4,TD,1649824123
Mizdah,31.45,12.98,83.41,13,92,17.27,LY,1649824932
Samut Songkhram,13.4,99.96,84.15,70,100,6.35,TH,1649804912
San Jerónimo,-11.95,-75.28,60.87,55,94,2.28,PE,1649847945
Siocon,7.71,122.14,78.49,87,96,4.5,PH,1649799818
Moerai,-22.43,-151.33,80.38,74,85,11.7,PF,1649866633
Deputatsky,69.3,139.9,-2.69,100,100,2.35,RU,1649875668
Lynchburg,37.41,-79.14,78.73,59,0,11.5,US,1649846664
Kaliua,-5.06,31.79,74.46,72,100,4.54,TZ,1649821982
Lucapa,-8.42,20.74,71.85,86,99,3.71,AO,1649824761
Itaituba,-4.28,-55.98,87.96,70,40,5.75,BR,1649843016
Santa Maria,-29.68,-53.81,69.1,83,75,4.61,BR,1649843553
Eureka,40.8,-124.16,46.2,70,100,4.0,US,1649857226
Ardakān,32.31,54.02,78.85,18,38,11.23,IR,1649815043
Luancheng,37.88,114.65,46.56,44,7,2.71,CN,1649800169
Aitape,-3.14,142.35,79.32,75,23,4.72,PG,1649881768
Mlonggo,-6.53,110.7,78.57,81,57,4.43,ID,1649803101
Champaign,40.13,-88.2,65.79,85,100,17.27,US,1649848652
Arequipa,-16.4,-71.53,71.67,7,0,5.75,PE,1649847224
Chilón,17.23,-92.42,87.85,44,14,1.92,MX,1649850900
Kieta,-6.22,155.63,78.57,80,30,4.14,PG,1649878700
Horodnye,45.89,28.85,53.53,45,98,19.08,UA,1649820147
Meulaboh,4.14,96.13,78.26,86,52,4.14,ID,1649806195
Lucea,18.45,-78.17,83.86,69,6,15.03,JM,1649847430
Aruvankad,11.37,76.77,59.22,90,100,1.97,IN,1649810558
Caravelas,-17.71,-39.25,83.28,68,49,7.2,BR,1649839527
Eastlake,41.65,-81.45,73.44,63,75,12.66,US,1649846924
Angoche,-16.23,39.91,80.04,76,11,7.43,MZ,1649820467
Leningradskiy,69.38,178.42,-7.53,97,77,10.85,RU,1649866422
Saint-Pierre,-21.34,55.48,76.68,90,75,20.71,RE,1649816940
Byron Bay,-28.65,153.62,62.49,79,100,11.07,AU,1649880136
Bryan,30.67,-96.37,75.87,86,100,11.5,US,1649851197
Atherton,53.52,-2.49,62.06,66,45,1.99,GB,1649826891
Zyryanka,65.75,150.85,-10.7,100,89,6.69,RU,1649874196
Huautla,21.03,-98.28,88.65,43,93,4.43,MX,1649852137
Ambunti,-4.24,142.84,73.27,89,46,2.39,PG,1649881692
São João do Paraíso,-15.31,-42.01,90.19,35,46,6.58,BR,1649840094
Voiron,45.36,5.59,71.94,43,53,3.0,FR,1649825766
Khāsh,28.22,61.22,74.25,8,3,11.72,IR,1649813535
Tocopilla,-22.09,-70.2,68.52,66,7,6.69,CL,1649847141
Guiratinga,-16.35,-53.76,89.87,44,2,4.32,BR,1649842955
Constitución,-35.33,-72.42,62.42,43,4,9.98,CL,1649848314
Bhag,29.04,67.82,93.65,5,29,9.82,PK,1649811908
Sorong,-0.88,131.25,79.09,88,100,6.73,ID,1649884343
Tekeli,44.83,78.82,52.34,59,10,5.5,KZ,1649808256
Marystown,47.17,-55.15,40.86,100,100,7.0,CA,1649840168
Velikiy Ustyug,60.76,46.31,41.99,98,100,7.2,RU,1649814138
Mandi Bahauddin,32.58,73.48,83.73,26,0,8.3,PK,1649810359
Concordia,-31.39,-58.02,68.07,43,15,9.22,AR,1649844650
Kriel,-26.27,29.23,61.0,58,7,4.12,ZA,1649823458
Meïganga,6.52,14.3,71.92,80,100,9.95,CM,1649825737
Lashio,22.93,97.75,75.06,44,53,1.88,MM,1649805030
Lázaro Cárdenas,17.96,-102.2,81.82,64,100,4.45,MX,1649853215
Cerrito,6.84,-72.69,60.66,74,98,2.68,CO,1649846596
Ilebo,-4.32,20.58,82.36,71,99,2.1,CD,1649824643
Mitú,1.2,-70.17,89.46,54,100,3.89,CO,1649846211
Lumsden,50.65,-104.87,20.35,78,100,21.07,CA,1649851745
Pochutla,15.74,-96.47,87.82,44,43,8.43,MX,1649851935
Bull Savanna,17.89,-77.59,83.28,57,7,14.5,JM,1649847315
Atambua,-9.11,124.89,73.31,87,100,3.76,ID,1649799792
Charters Towers,-20.1,146.27,69.85,75,62,8.86,AU,1649881512
Saint-Joseph,-21.37,55.62,75.58,86,95,16.13,RE,1649816908
Kirillov,59.86,38.38,36.64,88,97,7.58,RU,1649816196
Majene,-3.54,118.97,77.85,87,88,2.51,ID,1649801004
Los Llanos de Aridane,28.66,-17.92,65.95,91,20,16.11,ES,1649832491
Balezino,57.98,53.01,34.99,99,100,2.04,RU,1649812995
Clovis,36.83,-119.7,52.66,63,20,13.8,US,1649856428
Soyo,-6.13,12.37,81.16,76,100,5.55,AO,1649826684
Hastings,50.86,0.57,64.13,79,7,10.6,GB,1649826455
Tangwani,28.28,69.0,90.63,20,35,7.56,PK,1649811666
Kiunga,-6.12,141.29,74.68,99,98,1.86,PG,1649882139
Port Augusta,-32.5,137.77,68.85,36,60,6.85,AU,1649884136
Khabary,53.63,79.53,40.35,68,1,14.67,RU,1649807224
Glendive,47.11,-104.71,18.75,87,100,23.02,US,1649852054
Banda Aceh,5.56,95.32,82.24,76,92,3.8,ID,1649806334
Muzhi,65.37,64.67,34.3,100,100,3.76,RU,1649808755
Morristown,36.21,-83.29,75.9,83,0,8.05,US,1649847737
Saint Joseph,39.77,-94.85,39.58,64,100,17.27,US,1649850271
